{
"type": "FeatureCollection",
"name": "florence_01p",
"crs": { "type": "name", "properties": { "name": "urn:ogc:def:crs:OGC:1.3:CRS84" } },
"features": [
{ "type": "Feature", "properties": { "id": 1, "naam": "Cattedrale di Santa Maria del Fiore", "url": "https://nl.wikipedia.org/wiki/Kathedraal_van_Florence" }, "geometry": { "type": "Point", "coordinates": [ 11.256500020123472, 43.773127236491284 ] } },
{ "type": "Feature", "properties": { "id": 2, "naam": "Battistero di San Giovanni", "url": "https://nl.wikipedia.org/wiki/Baptisterium_(Florence)" }, "geometry": { "type": "Point", "coordinates": [ 11.255044213697529, 43.77315731437087 ] } },
{ "type": "Feature", "properties": { "id": 3, "naam": "Piazza della Repubblica", "url": "https://en.wikipedia.org/wiki/Piazza_della_Repubblica,_Florence" }, "geometry": { "type": "Point", "coordinates": [ 11.254028883819034, 43.7715445098397 ] } },
{ "type": "Feature", "properties": { "id": 4, "naam": "Palazzo Vecchio", "url": "https://nl.wikipedia.org/wiki/Palazzo_Vecchio" }, "geometry": { "type": "Point", "coordinates": [ 11.256102806979335, 43.769358526149198 ] } },
{ "type": "Feature", "properties": { "id": 5, "naam": "Piazzale degli Uffizi", "url": "https://nl.wikipedia.org/wiki/Uffizi" }, "geometry": { "type": "Point", "coordinates": [ 11.255587436081164, 43.768502173241501 ] } },
{ "type": "Feature", "properties": { "id": 6, "naam": "Uffizi Gallery", "url": "https://www.uffizi.it" }, "geometry": { "type": "Point", "coordinates": [ 11.255634625856368, 43.768154659055831 ] } },
{ "type": "Feature", "properties": { "id": 7, "naam": "Ponte Vecchio", "url": "https://nl.wikipedia.org/wiki/Ponte_Vecchio" }, "geometry": { "type": "Point", "coordinates": [ 11.253137970696661, 43.768002472014494 ] } },
{ "type": "Feature", "properties": { "id": 8, "naam": "Santa Trintina", "url": "https://en.wikipedia.org/wiki/Santa_Trinita" }, "geometry": { "type": "Point", "coordinates": [ 11.251078579979774, 43.770175461315937 ] } },
{ "type": "Feature", "properties": { "id": 9, "naam": "Santa Maria Novella", "url": "https://en.wikipedia.org/wiki/Santa_Maria_Novella" }, "geometry": { "type": "Point", "coordinates": [ 11.249577320798863, 43.774208506134507 ] } },
{ "type": "Feature", "properties": { "id": 10, "naam": "Basilica di San Lorenzo", "url": "https://nl.wikipedia.org/wiki/Sint-Laurensbasiliek_(Florence)" }, "geometry": { "type": "Point", "coordinates": [ 11.254005532753075, 43.774919591885144 ] } },
{ "type": "Feature", "properties": { "id": 11, "naam": "Palazzo Medici-Riccardi", "url": "https://nl.wikipedia.org/wiki/Palazzo_Medici-Riccardi" }, "geometry": { "type": "Point", "coordinates": [ 11.255741751498078, 43.775198177211408 ] } },
{ "type": "Feature", "properties": { "id": 12, "naam": "Santissima Annunziata", "url": "https://en.wikipedia.org/wiki/Santissima_Annunziata,_Florence" }, "geometry": { "type": "Point", "coordinates": [ 11.261320277467478, 43.777245968430201 ] } },
{ "type": "Feature", "properties": { "id": 13, "naam": "Ospedale degli Innocenti", "url": "https://en.wikipedia.org/wiki/Ospedale_degli_Innocenti" }, "geometry": { "type": "Point", "coordinates": [ 11.26103035924781, 43.776230066265619 ] } },
{ "type": "Feature", "properties": { "id": 14, "naam": "Tempio Maggiore Israelitico di Firenze", "url": "https://nl.wikipedia.org/wiki/Grote_Synagoge_van_Florence" }, "geometry": { "type": "Point", "coordinates": [ 11.266328510968547, 43.772723344441097 ] } },
{ "type": "Feature", "properties": { "id": 15, "naam": "Basilica di Santa Croce", "url": "https://nl.wikipedia.org/wiki/Santa_Croce_(Florence)" }, "geometry": { "type": "Point", "coordinates": [ 11.262667929554604, 43.768468436298711 ] } },
{ "type": "Feature", "properties": { "id": 16, "naam": "Basilica di Santo Spirito", "url": "https://nl.wikipedia.org/wiki/Santo_Spirito_(Florence)" }, "geometry": { "type": "Point", "coordinates": [ 11.24809309144387, 43.767104238339336 ] } },
{ "type": "Feature", "properties": { "id": 17, "naam": "Palazzo Pitti\n", "url": "https://nl.wikipedia.org/wiki/Palazzo_Pitti" }, "geometry": { "type": "Point", "coordinates": [ 11.250014179376974, 43.765197309677816 ] } },
{ "type": "Feature", "properties": { "id": 18, "naam": "Grotta del Buontalenti del Giardino di Boboli", "url": "https://nl.wikipedia.org/wiki/Boboli-tuinen" }, "geometry": { "type": "Point", "coordinates": [ 11.251998033670738, 43.766156307364568 ] } },
{ "type": "Feature", "properties": { "id": 19, "naam": "Giardino di Boboli", "url": "https://nl.wikipedia.org/wiki/Boboli-tuinen" }, "geometry": { "type": "Point", "coordinates": [ 11.248875411358922, 43.762648383239821 ] } },
{ "type": "Feature", "properties": { "id": 20, "naam": "Forte di Belvedere", "url": "https://en.wikipedia.org/wiki/Belvedere_(fort)" }, "geometry": { "type": "Point", "coordinates": [ 11.253704299060789, 43.763218762307609 ] } },
{ "type": "Feature", "properties": { "id": 23, "naam": "Piazzale Michelangelo", "url": "https://nl.wikipedia.org/wiki/Piazzale_Michelangelo" }, "geometry": { "type": "Point", "coordinates": [ 11.264952076823077, 43.762868462067502 ] } },
{ "type": "Feature", "properties": { "id": 22, "naam": "Mura di Firenze", "url": "https://nl.frwiki.wiki/wiki/Fortifications_de_Florence" }, "geometry": { "type": "Point", "coordinates": [ 11.258598437948589, 43.763088310753488 ] } },
{ "type": "Feature", "properties": { "id": 21, "naam": "Giardino Bardini", "url": "https://en.wikipedia.org/wiki/Bardini_Gardens" }, "geometry": { "type": "Point", "coordinates": [ 11.257377691487205, 43.763770859421406 ] } }
]
}
